[{"id": "10022628", "type": 0, "brand": "shell", "name": "WIEN AUSSTELLUNGSSTRASSE.", "lat": 48.217763, "lng": 16.394665, "country_code": "AT", "address1": "AUSSTELLUNGSSTRASSE 4", "address": "AUSSTELLUNGSSTRASSE 4", "city": "Wien", "state": "Wien", "postcode": "1020", "telephone": "+43 1 7295400", "country": "Austria", "amenities": ["atm", "atm_out", "standard_toilet", "bakery_shop", "credit_card", "fuel_card", "guarded_car_park", "full_service", "self_service", "austrian_highway_sticker", "credit_card_visa", "credit_card_mastercard", "credit_card_american_express", "credit_card_diners_club", "deli2go", "shell_card", "euroshell_card", "twenty_four_hour", "shop", "adblue_pack"], "inactive": false, "distance": 1.87687742151, "driving_distance": 2.521, "driving_duration": 544, "website_url": "https://find.shell.com/at/fuel/10022628-wien-ausstellungsstrasse", "open_status": "twenty_four_hour", "next_open_status_change": null, "tz_offset": 3600, "fuels": ["premium_diesel", "midgrade_gasoline", "shell_regular_diesel", "super_premium_gasoline"], "next_forecourt_open_status_change": null, "next_shop_open_status_change": null, "forecourt_open_status": "twenty_four_hour", "shop_open_status": "unknown"}, {"id": "10022635", "type": 2, "brand": "shell", "name": "WIEN TRIESTERSTRASSE.", "lat": 48.178851, "lng": 16.357798, "country_code": "AT", "address1": "TRIESTERSTRASSE 6A-8", "address": "TRIESTERSTRASSE 6A-8", "city": "Wien", "state": "Wien", "postcode": "1100", "telephone": "+43 1 6043464", "country": "Austria", "amenities": ["atm", "atm_in", "standard_toilet", "carwash", "disabled_facilities", "hgv_lane", "high_speed_diesel_pump", "bakery_shop", "air_and_water", "credit_card", "fuel_card", "vacuum", "parking_lanes", "full_service", "self_service", "austrian_highway_sticker", "fleet_card_dkv", "fleet_card_uta", "credit_card_visa", "credit_card_mastercard", "credit_card_american_express", "euroshell_card", "twenty_four_hour", "rollover", "rollover_and_jet", "adblue_pack", "billa_unterwegs"], "inactive": false, "distance": 3.47013119478, "driving_distance": 4.994, "driving_duration": 918, "website_url": "https://find.shell.com/at/fuel/10022635-wien-triesterstrasse", "open_status": "twenty_four_hour", "next_open_status_change": null, "tz_offset": 3600, "fuels": ["premium_diesel", "midgrade_gasoline", "shell_regular_diesel", "super_premium_gasoline"], "next_forecourt_open_status_change": null, "next_shop_open_status_change": null, "forecourt_open_status": "twenty_four_hour", "shop_open_status": "unknown"}, {"id": "10022648", "type": 0, "brand": "shell", "name": "WIEN HEILIGENSTAEDTERSTR", "lat": 48.241629, "lng": 16.361394, "country_code": "AT", "address1": "HEILIGENSTAEDTERSTR. 60", "address": "HEILIGENSTAEDTERSTR. 60", "city": "Wien", "state": "Wien", "postcode": "1190", "telephone": "+43 1 3682569", "country": "Austria", "amenities": ["atm", "standard_toilet", "carwash", "bakery_shop", "air_and_water", "credit_card", "fuel_card", "twenty_four_hour", "rollover", "adblue_pack", "billa_unterwegs"], "inactive": false, "distance": 3.83217537868, "driving_distance": 7.509, "driving_duration": 1130, "website_url": "https://find.shell.com/at/fuel/10022648-wien-heiligenstaedterstr", "open_status": "twenty_four_hour", "next_open_status_change": null, "tz_offset": 3600, "fuels": ["premium_diesel", "midgrade_gasoline", "shell_regular_diesel", "super_premium_gasoline"], "next_forecourt_open_status_change": null, "next_shop_open_status_change": null, "forecourt_open_status": "twenty_four_hour", "shop_open_status": "unknown"}, {"id": "10022647", "type": 0, "brand": "shell", "name": "WIEN GRINZINGERSTRASSE.", "lat": 48.254652, "lng": 16.363982, "country_code": "AT", "address1": "GRINZINGERSTRASSE 137", "address": "GRINZINGERSTRASSE 137", "city": "Wien", "state": "Wien", "postcode": "1190", "telephone": "+43 1 3702148", "country": "Austria", "amenities": ["atm", "atm_in", "standard_toilet", "bakery_shop", "air_and_water", "credit_card", "fuel_card", "full_service", "credit_card_visa", "credit_card_mastercard", "credit_card_american_express", "credit_card_diners_club", "deli2go", "euroshell_card", "shop", "adblue_pack"], "inactive": false, "distance": 5.21920026717, "driving_distance": 8.073, "driving_duration": 1176, "website_url": "https://find.shell.com/at/fuel/10022647-wien-grinzingerstrasse", "open_status": "open", "next_open_status_change": "2020-02-23T21:00:00.133Z", "tz_offset": 3600, "fuels": ["premium_diesel", "midgrade_gasoline", "shell_regular_diesel", "super_premium_gasoline"], "next_forecourt_open_status_change": "2020-02-23T21:00:00.133Z", "next_shop_open_status_change": null, "forecourt_open_status": "open", "shop_open_status": "unknown"}, {"id": "10022633", "type": 0, "brand": "shell", "name": "WIEN LAAERBERGSTRASSE.", "lat": 48.164233, "lng": 16.390912, "country_code": "AT", "address1": "LAAERBERGSTRASSE 84", "address": "LAAERBERGSTRASSE 84", "city": "Wien", "state": "Wien", "postcode": "1100", "telephone": "+43 1 6885351", "country": "Austria", "amenities": ["atm", "atm_in", "standard_toilet", "carwash", "disabled_facilities", "high_speed_diesel_pump", "bakery_shop", "air_and_water", "credit_card", "fuel_card", "credit_card_general", "vacuum", "self_service", "austrian_highway_sticker", "fleet_card_dkv", "fleet_card_uta", "credit_card_visa", "credit_card_mastercard", "credit_card_american_express", "credit_card_diners_club", "euroshell_card", "rollover", "partner_card", "adblue_pack", "billa_unterwegs"], "inactive": false, "distance": 5.0477062473, "driving_distance": 11.178, "driving_duration": 1243, "website_url": "https://find.shell.com/at/fuel/10022633-wien-laaerbergstrasse", "open_status": "open", "next_open_status_change": "2020-02-23T21:00:00.135Z", "tz_offset": 3600, "fuels": ["premium_diesel", "midgrade_gasoline", "shell_regular_diesel", "super_premium_gasoline"], "next_forecourt_open_status_change": "2020-02-23T21:00:00.135Z", "next_shop_open_status_change": null, "forecourt_open_status": "open", "shop_open_status": "unknown"}, {"id": "10022645", "type": 0, "brand": "shell", "name": "WIEN GERSTHOFERSTRASSE.", "lat": 48.229079, "lng": 16.32891, "country_code": "AT", "address1": "GERSTHOFERSTRASSE 2", "address": "GERSTHOFERSTRASSE 2", "city": "Wien", "state": "Wien", "postcode": "1180", "telephone": "+43 1 4782303", "country": "Austria", "amenities": ["atm", "atm_in", "standard_toilet", "bakery_shop", "air_and_water", "credit_card", "fuel_card", "full_service", "self_service", "austrian_highway_sticker", "fleet_card_general", "credit_card_visa", "credit_card_mastercard", "credit_card_american_express", "credit_card_diners_club", "euroshell_card", "twenty_four_hour", "adblue_pack", "billa_unterwegs"], "inactive": false, "distance": 4.05877839863, "driving_distance": 8.807, "driving_duration": 1324, "website_url": "https://find.shell.com/at/fuel/10022645-wien-gersthoferstrasse", "open_status": "twenty_four_hour", "next_open_status_change": null, "tz_offset": 3600, "fuels": ["premium_diesel", "midgrade_gasoline", "shell_regular_diesel", "super_premium_gasoline"], "next_forecourt_open_status_change": null, "next_shop_open_status_change": null, "forecourt_open_status": "twenty_four_hour", "shop_open_status": "unknown"}, {"id": "10022642", "type": 0, "brand": "shell", "name": "WIEN OEVERSEESTRASSE.", "lat": 48.201871, "lng": 16.317649, "country_code": "AT", "address1": "OEVERSEESTRASSE 2B", "address": "OEVERSEESTRASSE 2B", "city": "Wien", "state": "Wien", "postcode": "1150", "telephone": "+43 1 9854380", "country": "Austria", "amenities": ["atm", "atm_in", "standard_toilet", "carwash", "bakery_shop", "air_and_water", "credit_card", "fuel_card", "vacuum", "full_service", "self_service", "austrian_highway_sticker", "credit_card_visa", "credit_card_mastercard", "credit_card_american_express", "credit_card_diners_club", "euroshell_card", "twenty_four_hour", "rollover", "adblue_pack", "billa_unterwegs"], "inactive": false, "distance": 4.22122658074, "driving_distance": null, "driving_duration": null, "website_url": "https://find.shell.com/at/fuel/10022642-wien-oeverseestrasse", "open_status": "twenty_four_hour", "next_open_status_change": null, "tz_offset": 3600, "fuels": ["premium_diesel", "midgrade_gasoline", "shell_regular_diesel", "super_premium_gasoline"], "next_forecourt_open_status_change": null, "next_shop_open_status_change": null, "forecourt_open_status": "twenty_four_hour", "shop_open_status": "unknown"}, {"id": "10022641", "type": 0, "brand": "shell", "name": "WIEN LINZER STR.", "lat": 48.190405, "lng": 16.321617, "country_code": "AT", "address1": "LINZER STR 2A", "address": "LINZER STR 2A", "city": "Wien", "state": "Wien", "postcode": "1150", "telephone": "+43 1 8928077", "country": "Austria", "amenities": ["atm", "atm_in", "standard_toilet", "bakery_shop", "air_and_water", "credit_card", "fuel_card", "full_service", "self_service", "austrian_highway_sticker", "credit_card_visa", "credit_card_mastercard", "credit_card_american_express", "credit_card_diners_club", "deli2go", "shell_card", "euroshell_card", "twenty_four_hour", "shop", "adblue_pack"], "inactive": false, "distance": 4.34433089881, "driving_distance": null, "driving_duration": null, "website_url": "https://find.shell.com/at/fuel/10022641-wien-linzer-str", "open_status": "twenty_four_hour", "next_open_status_change": null, "tz_offset": 3600, "fuels": ["premium_diesel", "midgrade_gasoline", "shell_regular_diesel", "super_premium_gasoline"], "next_forecourt_open_status_change": null, "next_shop_open_status_change": null, "forecourt_open_status": "twenty_four_hour", "shop_open_status": "unknown"}, {"id": "10022654", "type": 0, "brand": "shell", "name": "WIEN WAGRAMERSTRASSE.", "lat": 48.233687, "lng": 16.420369, "country_code": "AT", "address1": "WAGRAMERSTRASSE 14", "address": "WAGRAMERSTRASSE 14", "city": "Wien", "state": "Wien", "postcode": "1220", "telephone": "+43 1 2697074", "country": "Austria", "amenities": ["atm", "standard_toilet", "carwash", "bakery_shop", "air_and_water", "credit_card", "fuel_card", "vacuum", "twenty_four_hour", "rollover", "adblue_pack", "billa_unterwegs"], "inactive": false, "distance": 4.46555254061, "driving_distance": null, "driving_duration": null, "website_url": "https://find.shell.com/at/fuel/10022654-wien-wagramerstrasse", "open_status": "twenty_four_hour", "next_open_status_change": null, "tz_offset": 3600, "fuels": ["premium_diesel", "midgrade_gasoline", "shell_regular_diesel", "super_premium_gasoline"], "next_forecourt_open_status_change": null, "next_shop_open_status_change": null, "forecourt_open_status": "twenty_four_hour", "shop_open_status": "unknown"}, {"id": "10022644", "type": 2, "brand": "shell", "name": "WIEN PFENNINGGELDG 2/ECKE HERBSTST.", "lat": 48.207853, "lng": 16.313299, "country_code": "AT", "address1": "PFENNINGGELDG 2/ECKE HERBSTSTRASSE", "address": "PFENNINGGELDG 2/ECKE HERBSTSTRASSE", "city": "Wien", "state": "Wien", "postcode": "1160", "telephone": "+43 1 4931814", "country": "Austria", "amenities": ["atm", "atm_in", "standard_toilet", "carwash", "disabled_facilities", "hgv_lane", "bakery_shop", "air_and_water", "credit_card", "fuel_card", "full_service", "self_service", "austrian_highway_sticker", "fleet_card_general", "fleet_card_dkv", "fleet_card_uta", "credit_card_visa", "credit_card_mastercard", "credit_card_american_express", "credit_card_diners_club", "euroshell_card", "twenty_four_hour", "rollover", "rollover_and_jet", "adblue_pack", "billa_unterwegs"], "inactive": false, "distance": 4.48488081439, "driving_distance": null, "driving_duration": null, "website_url": "https://find.shell.com/at/fuel/10022644-wien-pfenninggeldg-2-ecke-herbstst", "open_status": "twenty_four_hour", "next_open_status_change": null, "tz_offset": 3600, "fuels": ["premium_diesel", "midgrade_gasoline", "shell_regular_diesel", "super_premium_gasoline"], "next_forecourt_open_status_change": null, "next_shop_open_status_change": null, "forecourt_open_status": "twenty_four_hour", "shop_open_status": "unknown"}, {"id": "10022646", "type": 0, "brand": "shell", "name": "WIEN DARINGERGASSE.", "lat": 48.247244, "lng": 16.334815, "country_code": "AT", "address1": "DARINGERGASSE 1A", "address": "DARINGERGASSE 1A", "city": "Wien", "state": "Wien", "postcode": "1190", "telephone": "+43 1 3203421", "country": "Austria", "amenities": ["atm", "atm_in", "standard_toilet", "bakery_shop", "air_and_water", "credit_card", "fuel_card", "full_service", "credit_card_visa", "credit_card_mastercard", "credit_card_american_express", "credit_card_diners_club", "deli2go", "euroshell_card", "shop", "adblue_pack"], "inactive": false, "distance": 5.21737604823, "driving_distance": null, "driving_duration": null, "website_url": "https://find.shell.com/at/fuel/10022646-wien-daringergasse", "open_status": "open", "next_open_status_change": "2020-02-23T21:00:00.148Z", "tz_offset": 3600, "fuels": ["premium_diesel", "midgrade_gasoline", "shell_regular_diesel", "super_premium_gasoline"], "next_forecourt_open_status_change": "2020-02-23T21:00:00.148Z", "next_shop_open_status_change": null, "forecourt_open_status": "open", "shop_open_status": "unknown"}, {"id": "10022651", "type": 0, "brand": "shell", "name": "WIEN FLORIDSDORFER HAUPTSTR.", "lat": 48.254393, "lng": 16.394112, "country_code": "AT", "address1": "FLORIDSDORFER HAUPTSTR 17", "address": "FLORIDSDORFER HAUPTSTR 17", "city": "Wien", "state": "Wien", "postcode": "1210", "telephone": "+43 1 2781449", "country": "Austria", "amenities": ["atm", "standard_toilet", "bakery_shop", "air_and_water", "credit_card", "fuel_card", "vacuum", "twenty_four_hour", "adblue_pack", "billa_unterwegs"], "inactive": false, "distance": 5.35459175699, "driving_distance": null, "driving_duration": null, "website_url": "https://find.shell.com/at/fuel/10022651-wien-floridsdorfer-hauptstr", "open_status": "twenty_four_hour", "next_open_status_change": null, "tz_offset": 3600, "fuels": ["premium_diesel", "midgrade_gasoline", "shell_regular_diesel", "super_premium_gasoline"], "next_forecourt_open_status_change": null, "next_shop_open_status_change": null, "forecourt_open_status": "twenty_four_hour", "shop_open_status": "unknown"}, {"id": "10022653", "type": 2, "brand": "shell", "name": "WIEN AM KAISERMUEHLENDAMM.", "lat": 48.207212, "lng": 16.446857, "country_code": "AT", "address1": "AM KAISERMUEHLENDAMM 140", "address": "AM KAISERMUEHLENDAMM 140", "city": "Wien", "state": "Wien", "postcode": "1220", "telephone": "+43 1 2021030", "country": "Austria", "amenities": ["atm", "standard_toilet", "carwash", "disabled_facilities", "hgv_lane", "high_speed_diesel_pump", "bakery_shop", "air_and_water", "credit_card", "fuel_card", "vacuum", "twenty_four_hour", "rollover", "adblue_pack", "billa_unterwegs"], "inactive": false, "distance": 5.41347280226, "driving_distance": null, "driving_duration": null, "website_url": "https://find.shell.com/at/fuel/10022653-wien-am-kaisermuehlendamm", "open_status": "twenty_four_hour", "next_open_status_change": null, "tz_offset": 3600, "fuels": ["premium_diesel", "midgrade_gasoline", "shell_regular_diesel", "super_premium_gasoline"], "next_forecourt_open_status_change": null, "next_shop_open_status_change": null, "forecourt_open_status": "twenty_four_hour", "shop_open_status": "unknown"}, {"id": "10022656", "type": 2, "brand": "shell", "name": "WIEN DONAUSTADTSTRASSE", "lat": 48.227055, "lng": 16.444949, "country_code": "AT", "address1": "DONAUSTADTSTRASSE 37C", "address": "DONAUSTADTSTRASSE 37C", "city": "Wien", "state": "Wien", "postcode": "1220", "telephone": "+43 1 2020339", "country": "Austria", "amenities": ["atm", "atm_in", "standard_toilet", "carwash", "hgv_lane", "high_speed_diesel_pump", "bakery_shop", "air_and_water", "credit_card", "fuel_card", "vacuum", "deli2go", "twenty_four_hour", "rollover", "shop", "adblue_pack"], "inactive": false, "distance": 5.67279372294, "driving_distance": null, "driving_duration": null, "website_url": "https://find.shell.com/at/fuel/10022656-wien-donaustadtstrasse", "open_status": "twenty_four_hour", "next_open_status_change": null, "tz_offset": 3600, "fuels": ["premium_diesel", "midgrade_gasoline", "shell_regular_diesel", "super_premium_gasoline"], "next_forecourt_open_status_change": null, "next_shop_open_status_change": null, "forecourt_open_status": "twenty_four_hour", "shop_open_status": "unknown"}, {"id": "10022640", "type": 2, "brand": "shell", "name": "WIEN HADIKGASSE.", "lat": 48.190435, "lng": 16.294543, "country_code": "AT", "address1": "HADIKGASSE 128-134", "address": "HADIKGASSE 128-134", "city": "Wien", "state": "Wien", "postcode": "1140", "telephone": "+43 1 8947560", "country": "Austria", "amenities": ["atm", "atm_in", "standard_toilet", "hgv_lane", "high_speed_diesel_pump", "bakery_shop", "air_and_water", "credit_card", "fuel_card", "full_service", "self_service", "austrian_highway_sticker", "fleet_card_general", "fleet_card_dkv", "fleet_card_uta", "credit_card_visa", "credit_card_mastercard", "credit_card_american_express", "credit_card_diners_club", "euroshell_card", "twenty_four_hour", "adblue_pack", "billa_unterwegs"], "inactive": false, "distance": 6.19788620418, "driving_distance": null, "driving_duration": null, "website_url": "https://find.shell.com/at/fuel/10022640-wien-hadikgasse", "open_status": "twenty_four_hour", "next_open_status_change": null, "tz_offset": 3600, "fuels": ["premium_diesel", "midgrade_gasoline", "shell_regular_diesel", "super_premium_gasoline"], "next_forecourt_open_status_change": null, "next_shop_open_status_change": null, "forecourt_open_status": "twenty_four_hour", "shop_open_status": "unknown"}, {"id": "10022637", "type": 0, "brand": "shell", "name": "WIEN LAINZERSTRASSE.", "lat": 48.185532, "lng": 16.296231, "country_code": "AT", "address1": "LAINZERSTRASSE 14", "address": "LAINZERSTRASSE 14", "city": "Wien", "state": "Wien", "postcode": "1130", "telephone": "+43 1 8772572", "country": "Austria", "amenities": ["atm", "atm_in", "standard_toilet", "high_speed_diesel_pump", "air_and_water", "credit_card", "fuel_card", "self_service", "credit_card_visa", "credit_card_mastercard", "credit_card_american_express", "credit_card_diners_club", "deli2go", "shell_card", "euroshell_card", "shop", "adblue_pack"], "inactive": false, "distance": 6.27777534949, "driving_distance": null, "driving_duration": null, "website_url": "https://find.shell.com/at/fuel/10022637-wien-lainzerstrasse", "open_status": "open", "next_open_status_change": "2020-02-23T21:00:00.158Z", "tz_offset": 3600, "fuels": ["premium_diesel", "midgrade_gasoline", "shell_regular_diesel", "super_premium_gasoline"], "next_forecourt_open_status_change": "2020-02-23T21:00:00.158Z", "next_shop_open_status_change": null, "forecourt_open_status": "open", "shop_open_status": "unknown"}, {"id": "10022652", "type": 0, "brand": "shell", "name": "WIEN LEOPOLDAUERSTRASSE.", "lat": 48.259988, "lng": 16.411752, "country_code": "AT", "address1": "LEOPOLDAUERSTRASSE 51", "address": "LEOPOLDAUERSTRASSE 51", "city": "Wien", "state": "Wien", "postcode": "1210", "telephone": "+43 1 2781401", "country": "Austria", "amenities": ["atm", "standard_toilet", "carwash", "bakery_shop", "air_and_water", "credit_card", "fuel_card", "twenty_four_hour", "rollover", "adblue_pack", "billa_unterwegs"], "inactive": false, "distance": 6.40996125719, "driving_distance": null, "driving_duration": null, "website_url": "https://find.shell.com/at/fuel/10022652-wien-leopoldauerstrasse", "open_status": "twenty_four_hour", "next_open_status_change": null, "tz_offset": 3600, "fuels": ["premium_diesel", "midgrade_gasoline", "shell_regular_diesel", "super_premium_gasoline"], "next_forecourt_open_status_change": null, "next_shop_open_status_change": null, "forecourt_open_status": "twenty_four_hour", "shop_open_status": "unknown"}, {"id": "12272208", "type": 0, "brand": "shell", "name": "WIEN SIEMENSSTRASSE.", "lat": 48.267179, "lng": 16.428855, "country_code": "AT", "address1": "SIEMENSSTRASSE 105", "address": "SIEMENSSTRASSE 105", "city": "Wien", "state": "Wien", "postcode": "1210", "telephone": "+43 1 2580094", "country": "Austria", "amenities": ["standard_toilet", "carwash", "disabled_facilities", "high_speed_diesel_pump", "bakery_shop", "air_and_water", "credit_card", "fuel_card", "wifi", "vacuum", "parking_lanes", "self_service", "austrian_highway_sticker", "credit_card_visa", "credit_card_mastercard", "credit_card_american_express", "credit_card_diners_club", "euroshell_card", "rollover_and_jet", "selectshop", "partner_card"], "inactive": false, "distance": 7.72405138788, "driving_distance": null, "driving_duration": null, "website_url": "https://find.shell.com/at/fuel/12272208-wien-siemensstrasse", "open_status": "open", "next_open_status_change": "2020-02-23T20:00:00.162Z", "tz_offset": 3600, "fuels": ["cng", "premium_diesel", "midgrade_gasoline", "shell_regular_diesel", "super_premium_gasoline"], "next_forecourt_open_status_change": "2020-02-23T20:00:00.162Z", "next_shop_open_status_change": null, "forecourt_open_status": "open", "shop_open_status": "unknown"}, {"id": "10022639", "type": 0, "brand": "shell", "name": "WIEN HUETTELBERGSTRASSE.", "lat": 48.202725, "lng": 16.257546, "country_code": "AT", "address1": "HUETTELBERGSTRASSE 4", "address": "HUETTELBERGSTRASSE 4", "city": "Wien", "state": "Wien", "postcode": "1140", "telephone": "+43 1 9141235", "country": "Austria", "amenities": ["atm", "atm_out", "standard_toilet", "bakery_shop", "air_and_water", "credit_card", "fuel_card", "full_service", "self_service", "austrian_highway_sticker", "credit_card_visa", "credit_card_mastercard", "credit_card_american_express", "credit_card_diners_club", "shell_card", "euroshell_card", "adblue_pack", "billa_unterwegs"], "inactive": false, "distance": 8.63794244394, "driving_distance": null, "driving_duration": null, "website_url": "https://find.shell.com/at/fuel/10022639-wien-huettelbergstrasse", "open_status": "open", "next_open_status_change": "2020-02-23T21:00:00.164Z", "tz_offset": 3600, "fuels": ["premium_diesel", "midgrade_gasoline", "shell_regular_diesel", "super_premium_gasoline"], "next_forecourt_open_status_change": "2020-02-23T21:00:00.165Z", "next_shop_open_status_change": null, "forecourt_open_status": "open", "shop_open_status": "unknown"}, {"id": "10022649", "type": 0, "brand": "shell", "name": "WIEN WAGRAMER STRASSE.", "lat": 48.264427, "lng": 16.454859, "country_code": "AT", "address1": "WAGRAMER STRASSE 203", "address": "WAGRAMER STRASSE 203", "city": "Wien", "state": "Wien", "postcode": "1210", "telephone": "+43 1 2589460", "country": "Austria", "amenities": ["atm", "atm_in", "carwash", "air_and_water", "credit_card", "fuel_card", "twenty_four_hour", "rollover", "adblue_pack", "billa_unterwegs"], "inactive": false, "distance": 8.66889783589, "driving_distance": null, "driving_duration": null, "website_url": "https://find.shell.com/at/fuel/10022649-wien-wagramer-strasse", "open_status": "twenty_four_hour", "next_open_status_change": null, "tz_offset": 3600, "fuels": ["premium_diesel", "midgrade_gasoline", "shell_regular_diesel", "super_premium_gasoline"], "next_forecourt_open_status_change": null, "next_shop_open_status_change": null, "forecourt_open_status": "twenty_four_hour", "shop_open_status": "unknown"}, {"id": "12721668", "type": 0, "brand": "shell", "name": "WIEN SEESTADTSTRASSE", "lat": 48.216516, "lng": 16.505247, "country_code": "AT", "address1": "SEESTADTSTRASSE 6", "address": "SEESTADTSTRASSE 6", "city": "Wien", "state": "Wien", "postcode": "1220", "telephone": "+43 1 2803116", "country": "Austria", "amenities": ["atm", "atm_in", "air_and_water", "self_service", "twenty_four_hour", "shop"], "inactive": false, "distance": 9.78253562304, "driving_distance": null, "driving_duration": null, "website_url": "https://find.shell.com/at/fuel/12721668-wien-seestadtstrasse", "open_status": "twenty_four_hour", "next_open_status_change": null, "tz_offset": 3600, "fuels": ["premium_diesel", "midgrade_gasoline", "shell_regular_diesel", "super_premium_gasoline"], "next_forecourt_open_status_change": null, "next_shop_open_status_change": null, "forecourt_open_status": "twenty_four_hour", "shop_open_status": "unknown"}, {"id": "10022700", "type": 2, "brand": "shell", "name": "SCHWECHAT BRUCK-HAINBURGERSTRASSE.", "lat": 48.140529, "lng": 16.479637, "country_code": "AT", "address1": "BRUCK-HAINBURGERSTRASSE 2 A", "address": "BRUCK-HAINBURGERSTRASSE 2 A", "city": "SCHWECHAT", "state": "Nieder\u00f6sterreich", "postcode": "2320", "telephone": "+43 1 7078108", "country": "Austria", "amenities": ["atm", "atm_in", "standard_toilet", "carwash", "hgv_lane", "high_speed_diesel_pump", "bakery_shop", "air_and_water", "credit_card", "fuel_card", "credit_card_general", "vacuum", "self_service", "austrian_highway_sticker", "fleet_card_dkv", "fleet_card_uta", "credit_card_visa", "credit_card_mastercard", "credit_card_american_express", "credit_card_diners_club", "maut_terminal", "euroshell_card", "twenty_four_hour", "rollover", "partner_card", "adblue_pack", "billa_unterwegs"], "inactive": false, "distance": 10.86957625967, "driving_distance": null, "driving_duration": null, "website_url": "https://find.shell.com/at/fuel/10022700-schwechat-bruck-hainburgerstrasse", "open_status": "twenty_four_hour", "next_open_status_change": null, "tz_offset": 3600, "fuels": ["premium_diesel", "midgrade_gasoline", "shell_regular_diesel", "super_premium_gasoline"], "next_forecourt_open_status_change": null, "next_shop_open_status_change": null, "forecourt_open_status": "twenty_four_hour", "shop_open_status": "unknown"}, {"id": "12494397", "type": 0, "brand": "shell", "name": "SCHWECHAT HIMBERGER STRASSE.", "lat": 48.12646, "lng": 16.47269, "country_code": "AT", "address1": "HIMBERGER STRASSE 56A", "address": "HIMBERGER STRASSE 56A", "city": "SCHWECHAT", "state": "Nieder\u00f6sterreich", "postcode": "2320", "telephone": "+43 1 7072889", "country": "Austria", "amenities": ["standard_toilet", "carwash", "bakery_shop", "air_and_water", "credit_card", "fuel_card", "parking_lanes", "credit_card_visa", "credit_card_mastercard", "credit_card_american_express", "credit_card_diners_club", "euroshell_card", "rollover", "shop", "partner_card"], "inactive": false, "distance": 11.67584329267, "driving_distance": null, "driving_duration": null, "website_url": "https://find.shell.com/at/fuel/12494397-schwechat-himberger-strasse", "open_status": "open", "next_open_status_change": "2020-02-23T19:00:00.171Z", "tz_offset": 3600, "fuels": ["premium_diesel", "midgrade_gasoline", "shell_regular_diesel", "super_premium_gasoline"], "next_forecourt_open_status_change": "2020-02-23T19:00:00.172Z", "next_shop_open_status_change": null, "forecourt_open_status": "open", "shop_open_status": "unknown"}, {"id": "10022690", "type": 2, "brand": "shell", "name": "MARIA ENZERSDORF STEINFELDERSTRASS.", "lat": 48.090901, "lng": 16.309067, "country_code": "AT", "address1": "STEINFELDERSTRASSE 12", "address": "STEINFELDERSTRASSE 12", "city": "MARIA ENZERSDORF", "state": "Nieder\u00f6sterreich", "postcode": "2344", "telephone": "+43 2236 23254", "country": "Austria", "amenities": ["atm", "atm_in", "standard_toilet", "carwash", "hgv_lane", "high_speed_diesel_pump", "bakery_shop", "air_and_water", "credit_card", "fuel_card", "credit_card_general", "vacuum", "full_service", "austrian_highway_sticker", "fleet_card_dkv", "fleet_card_uta", "credit_card_visa", "credit_card_mastercard", "credit_card_american_express", "credit_card_diners_club", "euroshell_card", "twenty_four_hour", "rollover", "adblue_pack", "billa_unterwegs"], "inactive": false, "distance": 13.89690025611, "driving_distance": null, "driving_duration": null, "website_url": "https://find.shell.com/at/fuel/10022690-maria-enzersdorf-steinfelderstrass", "open_status": "twenty_four_hour", "next_open_status_change": null, "tz_offset": 3600, "fuels": ["premium_diesel", "midgrade_gasoline", "shell_regular_diesel", "super_premium_gasoline"], "next_forecourt_open_status_change": null, "next_shop_open_status_change": null, "forecourt_open_status": "twenty_four_hour", "shop_open_status": "unknown"}, {"id": "11950013", "type": 0, "brand": "shell", "name": "ACHAU LANZENDORFER STRASSE", "lat": 48.082555, "lng": 16.391596, "country_code": "AT", "address1": "LANZENDORFER STRASSE 9", "address": "LANZENDORFER STRASSE 9", "city": "Achau", "state": "Nieder\u00f6sterreich", "postcode": "2481", "telephone": "+43 2236 710698", "country": "Austria", "amenities": ["standard_toilet", "carwash", "disabled_facilities", "air_and_water", "credit_card", "fuel_card", "parking_lanes", "self_service", "credit_card_visa", "credit_card_mastercard", "credit_card_american_express", "credit_card_diners_club", "jet", "shop"], "inactive": false, "distance": 14.03038124293, "driving_distance": null, "driving_duration": null, "website_url": "https://find.shell.com/at/fuel/11950013-achau-lanzendorfer-strasse", "open_status": "open", "next_open_status_change": "2020-02-23T20:00:00.176Z", "tz_offset": 3600, "fuels": ["premium_diesel", "midgrade_gasoline", "shell_regular_diesel", "super_premium_gasoline"], "next_forecourt_open_status_change": "2020-02-23T20:00:00.177Z", "next_shop_open_status_change": null, "forecourt_open_status": "open", "shop_open_status": "unknown"}, {"id": "10022681", "type": 2, "brand": "shell", "name": "KORNEUBURG WIENERSTRASSE.", "lat": 48.339313, "lng": 16.337588, "country_code": "AT", "address1": "WIENERSTRASSE 38", "address": "WIENERSTRASSE 38", "city": "KORNEUBURG", "state": "Nieder\u00f6sterreich", "postcode": "2100", "telephone": "+43 2262 72788", "country": "Austria", "amenities": ["atm", "atm_in", "standard_toilet", "carwash", "hgv_lane", "high_speed_diesel_pump", "bakery_shop", "air_and_water", "credit_card", "fuel_card", "full_service", "fleet_card_dkv", "fleet_card_uta", "credit_card_visa", "credit_card_mastercard", "credit_card_american_express", "credit_card_diners_club", "euroshell_card", "rollover", "adblue_truck", "adblue_pack", "billa_unterwegs"], "inactive": false, "distance": 14.8264603585, "driving_distance": null, "driving_duration": null, "website_url": "https://find.shell.com/at/fuel/10022681-korneuburg-wienerstrasse", "open_status": "open", "next_open_status_change": "2020-02-23T22:45:00.179Z", "tz_offset": 3600, "fuels": ["premium_diesel", "midgrade_gasoline", "shell_regular_diesel", "super_premium_gasoline"], "next_forecourt_open_status_change": "2020-02-23T22:45:00.179Z", "next_shop_open_status_change": null, "forecourt_open_status": "open", "shop_open_status": "unknown"}, {"id": "10022663", "type": 0, "brand": "shell", "name": "DEUTSCH WAGRAM HAUPTSTRASSE.", "lat": 48.295657, "lng": 16.558694, "country_code": "AT", "address1": "HAUPTSTRASSE 59", "address": "HAUPTSTRASSE 59", "city": "DEUTSCH WAGRAM", "state": "Nieder\u00f6sterreich", "postcode": "2232", "telephone": "+43 2247 2264", "country": "Austria", "amenities": ["atm", "standard_toilet", "carwash", "bakery_shop", "air_and_water", "credit_card", "fuel_card", "twenty_four_hour", "rollover", "adblue_pack", "billa_unterwegs"], "inactive": false, "distance": 16.79262638292, "driving_distance": null, "driving_duration": null, "website_url": "https://find.shell.com/at/fuel/10022663-deutsch-wagram-hauptstrasse", "open_status": "twenty_four_hour", "next_open_status_change": null, "tz_offset": 3600, "fuels": ["premium_diesel", "midgrade_gasoline", "shell_regular_diesel", "super_premium_gasoline"], "next_forecourt_open_status_change": null, "next_shop_open_status_change": null, "forecourt_open_status": "twenty_four_hour", "shop_open_status": "unknown"}, {"id": "10022696", "type": 0, "brand": "shell", "name": "PFAFFSTAETTEN WIENERSTRASSE", "lat": 48.015556, "lng": 16.273641, "country_code": "AT", "address1": "WIENERSTRASSE 97", "address": "WIENERSTRASSE 97", "city": "PFAFFSTAETTEN", "state": "Nieder\u00f6sterreich", "postcode": "2511", "telephone": "+43 2252 209444", "country": "Austria", "amenities": ["atm", "atm_in", "standard_toilet", "carwash", "bakery_shop", "air_and_water", "credit_card", "fuel_card", "self_service", "fleet_card_dkv", "fleet_card_uta", "credit_card_visa", "credit_card_mastercard", "credit_card_american_express", "credit_card_diners_club", "euroshell_card", "conveyor", "adblue_pack", "billa_unterwegs"], "inactive": false, "distance": 22.6727855345, "driving_distance": null, "driving_duration": null, "website_url": "https://find.shell.com/at/fuel/10022696-pfaffstaetten-wienerstrasse", "open_status": "open", "next_open_status_change": "2020-02-23T22:59:00.183Z", "tz_offset": 3600, "fuels": ["premium_diesel", "midgrade_gasoline", "shell_regular_diesel", "super_premium_gasoline"], "next_forecourt_open_status_change": "2020-02-23T22:59:00.183Z", "next_shop_open_status_change": null, "forecourt_open_status": "open", "shop_open_status": "unknown"}, {"id": "10022675", "type": 0, "brand": "shell", "name": "HEILIGENKREUZ NUMMER", "lat": 48.056366, "lng": 16.128253, "country_code": "AT", "address1": "NUMMER 1", "address": "NUMMER 1", "city": "HEILIGENKREUZ", "state": "Nieder\u00f6sterreich", "postcode": "2532", "telephone": "+43 2258 8703140", "country": "Austria", "amenities": ["standard_toilet", "carwash", "disabled_facilities", "air_and_water", "credit_card", "fuel_card", "jet", "shop"], "inactive": false, "distance": 24.84081253896, "driving_distance": null, "driving_duration": null, "website_url": "https://find.shell.com/at/fuel/10022675-heiligenkreuz-nummer", "open_status": "open", "next_open_status_change": "2020-02-23T18:00:00.185Z", "tz_offset": 3600, "fuels": ["premium_diesel", "midgrade_gasoline", "shell_regular_diesel", "super_premium_gasoline"], "next_forecourt_open_status_change": "2020-02-23T18:00:00.186Z", "next_shop_open_status_change": null, "forecourt_open_status": "open", "shop_open_status": "unknown"}, {"id": "10022660", "type": 0, "brand": "shell", "name": "BADEN VOESLAUERSTR", "lat": 48.004771, "lng": 16.231503, "country_code": "AT", "address1": "VOESLAUERSTR 6", "address": "VOESLAUERSTR 6", "city": "BADEN", "state": "Nieder\u00f6sterreich", "postcode": "2500", "telephone": "+43 2252 48693", "country": "Austria", "amenities": ["atm", "standard_toilet", "high_speed_diesel_pump", "bakery_shop", "air_and_water", "credit_card", "fuel_card", "vacuum", "self_service", "austrian_highway_sticker", "credit_card_visa", "credit_card_mastercard", "credit_card_american_express", "credit_card_diners_club", "shop"], "inactive": false, "distance": 24.96417171607, "driving_distance": null, "driving_duration": null, "website_url": "https://find.shell.com/at/fuel/10022660-baden-voeslauerstr", "open_status": "open", "next_open_status_change": "2020-02-23T21:00:00.189Z", "tz_offset": 3600, "fuels": ["premium_diesel", "midgrade_gasoline", "shell_regular_diesel", "super_premium_gasoline"], "next_forecourt_open_status_change": "2020-02-23T21:00:00.189Z", "next_shop_open_status_change": null, "forecourt_open_status": "open", "shop_open_status": "unknown"}, {"id": "12612685", "type": 0, "brand": "shell", "name": "TRAISKIRCHEN WIENER NEUSTAEDTER STR", "lat": 47.97982, "lng": 16.286434, "country_code": "AT", "address1": "WIENER NEUST\u00c4DTER STRASSE 134", "address": "WIENER NEUST\u00c4DTER STRASSE 134", "city": "Traiskirchen", "state": "Nieder\u00f6sterreich", "postcode": "2512", "telephone": "+2252259140", "country": "Austria", "amenities": ["air_and_water", "self_service", "twenty_four_hour", "shop", "adblue_truck"], "inactive": false, "distance": 26.20813359031, "driving_distance": null, "driving_duration": null, "website_url": "https://find.shell.com/at/fuel/12612685-traiskirchen-wiener-neustaedter-str", "open_status": "twenty_four_hour", "next_open_status_change": null, "tz_offset": 3600, "fuels": ["premium_diesel", "midgrade_gasoline", "shell_regular_diesel", "super_premium_gasoline", "truck_diesel"], "next_forecourt_open_status_change": null, "next_shop_open_status_change": null, "forecourt_open_status": "twenty_four_hour", "shop_open_status": "unknown"}, {"id": "10022706", "type": 0, "brand": "shell", "name": "TULLN STAASDORFER STRASSE.", "lat": 48.326704, "lng": 16.059136, "country_code": "AT", "address1": "STAASDORFER STRASSE 1", "address": "STAASDORFER STRASSE 1", "city": "TULLN", "state": "Nieder\u00f6sterreich", "postcode": "3430", "telephone": "+43 2272 62523", "country": "Austria", "amenities": ["standard_toilet", "carwash", "disabled_facilities", "bakery_shop", "air_and_water", "credit_card", "fuel_card", "vacuum", "credit_card_visa", "credit_card_mastercard", "credit_card_american_express", "credit_card_diners_club", "shop"], "inactive": false, "distance": 26.76243567372, "driving_distance": null, "driving_duration": null, "website_url": "https://find.shell.com/at/fuel/10022706-tulln-staasdorfer-strasse", "open_status": "open", "next_open_status_change": "2020-02-23T20:00:00.193Z", "tz_offset": 3600, "fuels": ["premium_diesel", "midgrade_gasoline", "low_octane_gasoline", "shell_regular_diesel", "super_premium_gasoline"], "next_forecourt_open_status_change": "2020-02-23T20:00:00.193Z", "next_shop_open_status_change": null, "forecourt_open_status": "open", "shop_open_status": "unknown"}, {"id": "10022669", "type": 2, "brand": "shell", "name": "GOELLERSDORF TULLNERSTRASSE.", "lat": 48.492418, "lng": 16.109422, "country_code": "AT", "address1": "TULLNERSTRASSE 486", "address": "TULLNERSTRASSE 486", "city": "GOELLERSDORF", "state": "Nieder\u00f6sterreich", "postcode": "2013", "telephone": "+43 2954 30301", "country": "Austria", "amenities": ["atm", "standard_toilet", "carwash", "hgv_lane", "high_speed_diesel_pump", "bakery_shop", "air_and_water", "credit_card", "fuel_card", "vacuum", "deli2go", "jet", "rollover", "shop", "adblue_pack"], "inactive": false, "distance": 37.15790731948, "driving_distance": null, "driving_duration": null, "website_url": "https://find.shell.com/at/fuel/10022669-goellersdorf-tullnerstrasse", "open_status": "open", "next_open_status_change": "2020-02-23T21:00:00.196Z", "tz_offset": 3600, "fuels": ["premium_diesel", "midgrade_gasoline", "shell_regular_diesel", "super_premium_gasoline"], "next_forecourt_open_status_change": "2020-02-23T21:00:00.196Z", "next_shop_open_status_change": null, "forecourt_open_status": "open", "shop_open_status": "unknown"}, {"id": "12181746", "type": 2, "brand": "shell", "name": "SCHRICK ANTENSEE", "lat": 48.520151, "lng": 16.616476, "country_code": "AT", "address1": "ANTENSEE 3", "address": "ANTENSEE 3", "city": "SCHRICK", "state": "Nieder\u00f6sterreich", "postcode": "2191", "telephone": "+43 2574 29364", "country": "Austria", "amenities": ["atm", "standard_toilet", "carwash", "disabled_facilities", "hgv_lane", "high_speed_diesel_pump", "bakery_shop", "air_and_water", "credit_card", "fuel_card", "wifi", "vacuum", "fleet_card_dkv", "fleet_card_uta", "shell_card", "euroshell_card", "pay_at_pump", "twenty_four_hour", "shop", "partner_card"], "inactive": false, "distance": 39.04847293327, "driving_distance": null, "driving_duration": null, "website_url": "https://find.shell.com/at/fuel/12181746-schrick-antensee", "open_status": "twenty_four_hour", "next_open_status_change": null, "tz_offset": 3600, "fuels": ["premium_diesel", "midgrade_gasoline", "low_octane_gasoline", "shell_regular_diesel", "autogas_lpg", "super_premium_gasoline"], "next_forecourt_open_status_change": null, "next_shop_open_status_change": null, "forecourt_open_status": "twenty_four_hour", "shop_open_status": "unknown"}, {"id": "10022691", "type": 0, "brand": "shell", "name": "MISTELBACH MITSCHASTRASSE", "lat": 48.56169, "lng": 16.576921, "country_code": "AT", "address1": "MITSCHASTRASSE 29", "address": "MITSCHASTRASSE 29", "city": "MISTELBACH", "state": "Nieder\u00f6sterreich", "postcode": "2130", "telephone": "+43 2572 2622", "country": "Austria", "amenities": ["atm", "atm_in", "standard_toilet", "carwash", "bakery_shop", "air_and_water", "credit_card", "fuel_card", "full_service", "credit_card_visa", "credit_card_mastercard", "credit_card_american_express", "credit_card_diners_club", "euroshell_card", "rollover", "adblue_pack", "billa_unterwegs"], "inactive": false, "distance": 42.07333781742, "driving_distance": null, "driving_duration": null, "website_url": "https://find.shell.com/at/fuel/10022691-mistelbach-mitschastrasse", "open_status": "open", "next_open_status_change": "2020-02-23T21:00:00.200Z", "tz_offset": 3600, "fuels": ["premium_diesel", "midgrade_gasoline", "shell_regular_diesel", "super_premium_gasoline"], "next_forecourt_open_status_change": "2020-02-23T21:00:00.200Z", "next_shop_open_status_change": null, "forecourt_open_status": "open", "shop_open_status": "unknown"}]